{"source":"OurAirports airports.csv (Public Domain)","source_url":"https://ourairports.com/data/","generated_on":"2026-07-21","airports":{"ABE":{"airport":"ABE","name":"Lehigh Valley International Airport","city":"Allentown/Bethlehem","country_code":"US","country_name":"United States","continent":"NA","latitude":40.651773,"longitude":-75.442797,"type":"medium_airport"},"ABI":{"airport":"ABI","name":"Abilene Regional Airport","city":"Abilene","country_code":"US","country_name":"United States","continent":"NA","latitude":32.4113006592,"longitude":-99.68190002440001,"type":"medium_airport"},"ABQ":{"airport":"ABQ","name":"Albuquerque International Sunport","city":"Albuquerque","country_code":"US","country_name":"United States","continent":"NA","latitude":35.039976,"longitude":-106.608925,"type":"large_airport"},"ABY":{"airport":"ABY","name":"Southwest Georgia Regional Airport","city":"Albany","country_code":"US","country_name":"United States","continent":"NA","latitude":31.532946,"longitude":-84.196215,"type":"medium_airport"},"ACK":{"airport":"ACK","name":"Nantucket Memorial Airport","city":"Nantucket","country_code":"US","country_name":"United States","continent":"NA","latitude":41.25310135,"longitude":-70.06020355,"type":"medium_airport"},"ACT":{"airport":"ACT","name":"Waco Regional Airport","city":"Waco","country_code":"US","country_name":"United States","continent":"NA","latitude":31.611299514770508,"longitude":-97.23049926757812,"type":"medium_airport"},"AEX":{"airport":"AEX","name":"Alexandria International Airport","city":"Alexandria","country_code":"US","country_name":"United States","continent":"NA","latitude":31.325828,"longitude":-92.546702,"type":"medium_airport"},"AGS":{"airport":"AGS","name":"Augusta Regional At Bush Field","city":"Augusta","country_code":"US","country_name":"United States","continent":"NA","latitude":33.3699,"longitude":-81.9645,"type":"medium_airport"},"ALB":{"airport":"ALB","name":"Albany International Airport","city":"Albany","country_code":"US","country_name":"United States","continent":"NA","latitude":42.748299,"longitude":-73.801697,"type":"large_airport"},"ALW":{"airport":"ALW","name":"Walla Walla Regional Airport","city":"Walla Walla","country_code":"US","country_name":"United States","continent":"NA","latitude":46.09489822,"longitude":-118.288002,"type":"medium_airport"},"AMA":{"airport":"AMA","name":"Rick Husband Amarillo International Airport","city":"Amarillo","country_code":"US","country_name":"United States","continent":"NA","latitude":35.217857,"longitude":-101.706444,"type":"medium_airport"},"AMS":{"airport":"AMS","name":"Amsterdam Airport Schiphol","city":"Amsterdam","country_code":"NL","country_name":"Netherlands","continent":"EU","latitude":52.308601,"longitude":4.76389,"type":"large_airport"},"ANC":{"airport":"ANC","name":"Ted Stevens Anchorage International Airport","city":"Anchorage","country_code":"US","country_name":"United States","continent":"NA","latitude":61.179004,"longitude":-149.992561,"type":"large_airport"},"ASE":{"airport":"ASE","name":"Aspen-Pitkin County Airport (Sardy Field)","city":"Aspen","country_code":"US","country_name":"United States","continent":"NA","latitude":39.223202,"longitude":-106.869003,"type":"medium_airport"},"ATH":{"airport":"ATH","name":"Athens Eleftherios Venizelos International Airport","city":"Spata-Artemida","country_code":"GR","country_name":"Greece","continent":"EU","latitude":37.936401,"longitude":23.9445,"type":"large_airport"},"ATL":{"airport":"ATL","name":"Hartsfield Jackson Atlanta International Airport","city":"Atlanta","country_code":"US","country_name":"United States","continent":"NA","latitude":33.6367,"longitude":-84.428101,"type":"large_airport"},"AUA":{"airport":"AUA","name":"Queen Beatrix International Airport","city":"Oranjestad","country_code":"AW","country_name":"Aruba","continent":"NA","latitude":12.501056,"longitude":-70.014281,"type":"large_airport"},"AUS":{"airport":"AUS","name":"Austin Bergstrom International Airport","city":"Austin","country_code":"US","country_name":"United States","continent":"NA","latitude":30.197535,"longitude":-97.662015,"type":"large_airport"},"AVL":{"airport":"AVL","name":"Asheville Regional Airport","city":"Asheville","country_code":"US","country_name":"United States","continent":"NA","latitude":35.435488,"longitude":-82.541853,"type":"medium_airport"},"AZO":{"airport":"AZO","name":"Kalamazoo/Battle Creek International Airport","city":"Kalamazoo","country_code":"US","country_name":"United States","continent":"NA","latitude":42.232105,"longitude":-85.549637,"type":"medium_airport"},"BCN":{"airport":"BCN","name":"Josep Tarradellas Barcelona-El Prat Airport","city":"Barcelona","country_code":"ES","country_name":"Spain","continent":"EU","latitude":41.2971,"longitude":2.07846,"type":"large_airport"},"BDA":{"airport":"BDA","name":"L.F. Wade International Airport","city":"Hamilton","country_code":"BM","country_name":"Bermuda","continent":"NA","latitude":32.363802,"longitude":-64.67824,"type":"large_airport"},"BDL":{"airport":"BDL","name":"Bradley International Airport","city":"Hartford","country_code":"US","country_name":"United States","continent":"NA","latitude":41.938555,"longitude":-72.688016,"type":"large_airport"},"BET":{"airport":"BET","name":"Bethel Airport","city":"Bethel","country_code":"US","country_name":"United States","continent":"NA","latitude":60.77980042,"longitude":-161.8379974,"type":"medium_airport"},"BFL":{"airport":"BFL","name":"Meadows Field","city":"Bakersfield","country_code":"US","country_name":"United States","continent":"NA","latitude":35.433601,"longitude":-119.056999,"type":"medium_airport"},"BGI":{"airport":"BGI","name":"Grantley Adams International Airport","city":"Bridgetown","country_code":"BB","country_name":"Barbados","continent":"NA","latitude":13.074667,"longitude":-59.491034,"type":"large_airport"},"BGM":{"airport":"BGM","name":"Greater Binghamton/Edwin A Link field","city":"Binghamton","country_code":"US","country_name":"United States","continent":"NA","latitude":42.20869827,"longitude":-75.97979736,"type":"medium_airport"},"BGR":{"airport":"BGR","name":"Bangor International Airport","city":"Bangor","country_code":"US","country_name":"United States","continent":"NA","latitude":44.806364,"longitude":-68.826668,"type":"medium_airport"},"BHM":{"airport":"BHM","name":"Birmingham-Shuttlesworth International Airport","city":"Birmingham","country_code":"US","country_name":"United States","continent":"NA","latitude":33.562877,"longitude":-86.750712,"type":"large_airport"},"BIL":{"airport":"BIL","name":"Billings Logan International Airport","city":"Billings","country_code":"US","country_name":"United States","continent":"NA","latitude":45.808932,"longitude":-108.541242,"type":"medium_airport"},"BIS":{"airport":"BIS","name":"Bismarck Municipal Airport","city":"Bismarck","country_code":"US","country_name":"United States","continent":"NA","latitude":46.772734,"longitude":-100.746874,"type":"medium_airport"},"BJI":{"airport":"BJI","name":"Bemidji Regional Airport","city":"Bemidji","country_code":"US","country_name":"United States","continent":"NA","latitude":47.50939941,"longitude":-94.93370056,"type":"medium_airport"},"BLI":{"airport":"BLI","name":"Bellingham International Airport","city":"Bellingham","country_code":"US","country_name":"United States","continent":"NA","latitude":48.79280090332031,"longitude":-122.53800201416016,"type":"medium_airport"},"BLK":{"airport":"BLK","name":"Blackpool Airport","city":"Blackpool","country_code":"GB","country_name":"United Kingdom","continent":"EU","latitude":53.771702,"longitude":-3.02861,"type":"medium_airport"},"BMI":{"airport":"BMI","name":"Central Illinois Regional Airport at Bloomington-Normal","city":"Bloomington/Normal","country_code":"US","country_name":"United States","continent":"NA","latitude":40.4771,"longitude":-88.915901,"type":"medium_airport"},"BNA":{"airport":"BNA","name":"Nashville International Airport","city":"Nashville","country_code":"US","country_name":"United States","continent":"NA","latitude":36.1245,"longitude":-86.6782,"type":"large_airport"},"BOG":{"airport":"BOG","name":"El Dorado International Airport","city":"Bogota","country_code":"CO","country_name":"Colombia","continent":"SA","latitude":4.70159,"longitude":-74.1469,"type":"large_airport"},"BOI":{"airport":"BOI","name":"Boise Air Terminal/Gowen Field","city":"Boise","country_code":"US","country_name":"United States","continent":"NA","latitude":43.5644,"longitude":-116.223,"type":"large_airport"},"BON":{"airport":"BON","name":"Flamingo International Airport","city":"Kralendijk","country_code":"BQ","country_name":"Caribbean Netherlands","continent":"NA","latitude":12.131,"longitude":-68.268501,"type":"large_airport"},"BOS":{"airport":"BOS","name":"Boston Logan International Airport","city":"Boston","country_code":"US","country_name":"United States","continent":"NA","latitude":42.36197,"longitude":-71.0079,"type":"large_airport"},"BQK":{"airport":"BQK","name":"Brunswick Golden Isles Airport","city":"Brunswick","country_code":"US","country_name":"United States","continent":"NA","latitude":31.258801,"longitude":-81.466499,"type":"medium_airport"},"BTR":{"airport":"BTR","name":"Baton Rouge Metropolitan Airport","city":"Baton Rouge","country_code":"US","country_name":"United States","continent":"NA","latitude":30.533199,"longitude":-91.149597,"type":"medium_airport"},"BTV":{"airport":"BTV","name":"Patrick Leahy Burlington International Airport","city":"Burlington","country_code":"US","country_name":"United States","continent":"NA","latitude":44.471901,"longitude":-73.153297,"type":"medium_airport"},"BUF":{"airport":"BUF","name":"Buffalo Niagara International Airport","city":"Buffalo","country_code":"US","country_name":"United States","continent":"NA","latitude":42.940498,"longitude":-78.732201,"type":"large_airport"},"BUR":{"airport":"BUR","name":"Hollywood Burbank/Bob Hope Airport","city":"Burbank","country_code":"US","country_name":"United States","continent":"NA","latitude":34.202834,"longitude":-118.35805,"type":"large_airport"},"BWI":{"airport":"BWI","name":"Baltimore/Washington International Thurgood Marshall Airport","city":"Baltimore","country_code":"US","country_name":"United States","continent":"NA","latitude":39.1754,"longitude":-76.668297,"type":"large_airport"},"BZE":{"airport":"BZE","name":"Philip S. W. Goldson International Airport","city":"Belize City","country_code":"BZ","country_name":"Belize","continent":"NA","latitude":17.539951,"longitude":-88.303556,"type":"large_airport"},"BZN":{"airport":"BZN","name":"Bozeman Yellowstone International Airport","city":"Bozeman","country_code":"US","country_name":"United States","continent":"NA","latitude":45.778853,"longitude":-111.153711,"type":"medium_airport"},"CAE":{"airport":"CAE","name":"Columbia Metropolitan Airport","city":"Columbia","country_code":"US","country_name":"United States","continent":"NA","latitude":33.938172,"longitude":-81.123022,"type":"medium_airport"},"CAK":{"airport":"CAK","name":"Akron Canton Regional Airport","city":"Akron","country_code":"US","country_name":"United States","continent":"NA","latitude":40.916099548339844,"longitude":-81.44219970703125,"type":"medium_airport"},"CDG":{"airport":"CDG","name":"Charles de Gaulle International Airport","city":"Paris (Roissy-en-France, Val-d'Oise)","country_code":"FR","country_name":"France","continent":"EU","latitude":49.00896,"longitude":2.554117,"type":"large_airport"},"CHA":{"airport":"CHA","name":"Chattanooga Metropolitan Airport (Lovell Field)","city":"Chattanooga","country_code":"US","country_name":"United States","continent":"NA","latitude":35.035301,"longitude":-85.203796,"type":"medium_airport"},"CHO":{"airport":"CHO","name":"Charlottesville Albemarle Airport","city":"Charlottesville","country_code":"US","country_name":"United States","continent":"NA","latitude":38.13859939575195,"longitude":-78.4529037475586,"type":"medium_airport"},"CHS":{"airport":"CHS","name":"Charleston International Airport","city":"Charleston","country_code":"US","country_name":"United States","continent":"NA","latitude":32.896159,"longitude":-80.038151,"type":"large_airport"},"CID":{"airport":"CID","name":"The Eastern Iowa Airport","city":"Cedar Rapids","country_code":"US","country_name":"United States","continent":"NA","latitude":41.884701,"longitude":-91.7108,"type":"medium_airport"},"CIU":{"airport":"CIU","name":"Chippewa County International Airport","city":"Kincheloe","country_code":"US","country_name":"United States","continent":"NA","latitude":46.242038,"longitude":-84.462082,"type":"medium_airport"},"CKB":{"airport":"CKB","name":"North Central West Virginia Airport","city":"Bridgeport","country_code":"US","country_name":"United States","continent":"NA","latitude":39.2966,"longitude":-80.228104,"type":"medium_airport"},"CLE":{"airport":"CLE","name":"Cleveland Hopkins International Airport","city":"Cleveland","country_code":"US","country_name":"United States","continent":"NA","latitude":41.411701,"longitude":-81.8498,"type":"large_airport"},"CLT":{"airport":"CLT","name":"Charlotte Douglas International Airport","city":"Charlotte","country_code":"US","country_name":"United States","continent":"NA","latitude":35.2140007019043,"longitude":-80.94309997558594,"type":"large_airport"},"CMH":{"airport":"CMH","name":"John Glenn Columbus International Airport","city":"Columbus","country_code":"US","country_name":"United States","continent":"NA","latitude":39.998001,"longitude":-82.891899,"type":"large_airport"},"CMI":{"airport":"CMI","name":"University of Illinois Willard Airport","city":"Savoy","country_code":"US","country_name":"United States","continent":"NA","latitude":40.039819,"longitude":-88.276249,"type":"medium_airport"},"COS":{"airport":"COS","name":"City of Colorado Springs Municipal Airport","city":"Colorado Springs","country_code":"US","country_name":"United States","continent":"NA","latitude":38.805801,"longitude":-104.700996,"type":"large_airport"},"CSG":{"airport":"CSG","name":"Columbus Airport","city":"Columbus","country_code":"US","country_name":"United States","continent":"NA","latitude":32.516415,"longitude":-84.939602,"type":"medium_airport"},"CUR":{"airport":"CUR","name":"Hato International Airport","city":"Willemstad","country_code":"CW","country_name":"Curaçao","continent":"NA","latitude":12.1889,"longitude":-68.959801,"type":"large_airport"},"CVG":{"airport":"CVG","name":"Cincinnati Northern Kentucky International Airport","city":"Cincinnati / Covington","country_code":"US","country_name":"United States","continent":"NA","latitude":39.048801,"longitude":-84.667801,"type":"large_airport"},"CWA":{"airport":"CWA","name":"Central Wisconsin Airport","city":"Mosinee","country_code":"US","country_name":"United States","continent":"NA","latitude":44.777448,"longitude":-89.670238,"type":"medium_airport"},"DAB":{"airport":"DAB","name":"Daytona Beach International Airport","city":"Daytona Beach","country_code":"US","country_name":"United States","continent":"NA","latitude":29.18255,"longitude":-81.059464,"type":"medium_airport"},"DAL":{"airport":"DAL","name":"Dallas Love Field","city":"Dallas","country_code":"US","country_name":"United States","continent":"NA","latitude":32.844776,"longitude":-96.847653,"type":"large_airport"},"DAY":{"airport":"DAY","name":"James M. Cox Dayton International Airport","city":"Dayton","country_code":"US","country_name":"United States","continent":"NA","latitude":39.902401,"longitude":-84.219398,"type":"medium_airport"},"DCA":{"airport":"DCA","name":"Ronald Reagan Washington National Airport","city":"Washington","country_code":"US","country_name":"United States","continent":"NA","latitude":38.8521,"longitude":-77.037697,"type":"large_airport"},"DEN":{"airport":"DEN","name":"Denver International Airport","city":"Denver","country_code":"US","country_name":"United States","continent":"NA","latitude":39.860027,"longitude":-104.673792,"type":"large_airport"},"DFW":{"airport":"DFW","name":"Dallas Fort Worth International Airport","city":"Dallas-Fort Worth","country_code":"US","country_name":"United States","continent":"NA","latitude":32.896801,"longitude":-97.038002,"type":"large_airport"},"DHN":{"airport":"DHN","name":"Dothan Regional Airport","city":"Dothan","country_code":"US","country_name":"United States","continent":"NA","latitude":31.321300506591797,"longitude":-85.44960021972656,"type":"medium_airport"},"DLH":{"airport":"DLH","name":"Duluth International Airport","city":"Duluth","country_code":"US","country_name":"United States","continent":"NA","latitude":46.841873,"longitude":-92.198746,"type":"medium_airport"},"DRO":{"airport":"DRO","name":"Durango La Plata County Airport","city":"Durango","country_code":"US","country_name":"United States","continent":"NA","latitude":37.151501,"longitude":-107.753998,"type":"medium_airport"},"DSM":{"airport":"DSM","name":"Des Moines International Airport","city":"Des Moines","country_code":"US","country_name":"United States","continent":"NA","latitude":41.534027,"longitude":-93.656719,"type":"large_airport"},"DTW":{"airport":"DTW","name":"Detroit Metropolitan Wayne County Airport","city":"Detroit","country_code":"US","country_name":"United States","continent":"NA","latitude":42.21377,"longitude":-83.353786,"type":"large_airport"},"DUB":{"airport":"DUB","name":"Dublin Airport","city":"Dublin","country_code":"IE","country_name":"Ireland","continent":"EU","latitude":53.428713,"longitude":-6.262121,"type":"large_airport"},"DVL":{"airport":"DVL","name":"Devils Lake Regional Airport","city":"Devils Lake","country_code":"US","country_name":"United States","continent":"NA","latitude":48.115454,"longitude":-98.908796,"type":"medium_airport"},"ECP":{"airport":"ECP","name":"Northwest Florida Beaches International Airport","city":"Panama City Beach","country_code":"US","country_name":"United States","continent":"NA","latitude":30.357106,"longitude":-85.795414,"type":"medium_airport"},"ELM":{"airport":"ELM","name":"Elmira Corning Regional Airport","city":"Elmira/Corning","country_code":"US","country_name":"United States","continent":"NA","latitude":42.1599006652832,"longitude":-76.8916015625,"type":"medium_airport"},"ELP":{"airport":"ELP","name":"El Paso International Airport","city":"El Paso","country_code":"US","country_name":"United States","continent":"NA","latitude":31.809908,"longitude":-106.375607,"type":"large_airport"},"ERI":{"airport":"ERI","name":"Erie International Tom Ridge Field","city":"Erie","country_code":"US","country_name":"United States","continent":"NA","latitude":42.083127,"longitude":-80.173867,"type":"medium_airport"},"ESC":{"airport":"ESC","name":"Delta County Airport","city":"Escanaba","country_code":"US","country_name":"United States","continent":"NA","latitude":45.723199,"longitude":-87.088623,"type":"medium_airport"},"EUG":{"airport":"EUG","name":"Eugene Airport","city":"Eugene","country_code":"US","country_name":"United States","continent":"NA","latitude":44.124599,"longitude":-123.211998,"type":"medium_airport"},"EWR":{"airport":"EWR","name":"Newark Liberty International Airport","city":"Newark","country_code":"US","country_name":"United States","continent":"NA","latitude":40.6894,"longitude":-74.170545,"type":"large_airport"},"EYW":{"airport":"EYW","name":"Key West International Airport","city":"Key West","country_code":"US","country_name":"United States","continent":"NA","latitude":24.556119,"longitude":-81.759579,"type":"medium_airport"},"EZE":{"airport":"EZE","name":"Ezeiza International Airport - Ministro Pistarini","city":"Buenos Aires (Ezeiza)","country_code":"AR","country_name":"Argentina","continent":"SA","latitude":-34.8222,"longitude":-58.5358,"type":"large_airport"},"FAI":{"airport":"FAI","name":"Fairbanks International Airport","city":"Fairbanks","country_code":"US","country_name":"United States","continent":"NA","latitude":64.815102,"longitude":-147.856003,"type":"medium_airport"},"FAR":{"airport":"FAR","name":"Hector International Airport","city":"Fargo","country_code":"US","country_name":"United States","continent":"NA","latitude":46.9207,"longitude":-96.815804,"type":"medium_airport"},"FAT":{"airport":"FAT","name":"Fresno Yosemite International Airport","city":"Fresno","country_code":"US","country_name":"United States","continent":"NA","latitude":36.775767,"longitude":-119.718018,"type":"large_airport"},"FAY":{"airport":"FAY","name":"Fayetteville Regional Airport - Grannis Field","city":"Fayetteville","country_code":"US","country_name":"United States","continent":"NA","latitude":34.991199,"longitude":-78.880302,"type":"medium_airport"},"FCA":{"airport":"FCA","name":"Glacier Park International Airport","city":"Kalispell","country_code":"US","country_name":"United States","continent":"NA","latitude":48.310501,"longitude":-114.255997,"type":"medium_airport"},"FCO":{"airport":"FCO","name":"Rome–Fiumicino Leonardo da Vinci International Airport","city":"Rome","country_code":"IT","country_name":"Italy","continent":"EU","latitude":41.804532,"longitude":12.251998,"type":"large_airport"},"FLL":{"airport":"FLL","name":"Fort Lauderdale Hollywood International Airport","city":"Fort Lauderdale","country_code":"US","country_name":"United States","continent":"NA","latitude":26.072599,"longitude":-80.152702,"type":"large_airport"},"FNT":{"airport":"FNT","name":"Bishop International Airport","city":"Flint","country_code":"US","country_name":"United States","continent":"NA","latitude":42.969294,"longitude":-83.743355,"type":"medium_airport"},"FRA":{"airport":"FRA","name":"Frankfurt Main Airport","city":"Frankfurt am Main","country_code":"DE","country_name":"Germany","continent":"EU","latitude":50.026706,"longitude":8.55835,"type":"large_airport"},"FSD":{"airport":"FSD","name":"Sioux Falls Regional Airport","city":"Sioux Falls","country_code":"US","country_name":"United States","continent":"NA","latitude":43.585463,"longitude":-96.741152,"type":"medium_airport"},"FSM":{"airport":"FSM","name":"Fort Smith Regional Airport","city":"Fort Smith","country_code":"US","country_name":"United States","continent":"NA","latitude":35.336601,"longitude":-94.367401,"type":"medium_airport"},"FWA":{"airport":"FWA","name":"Fort Wayne International Airport","city":"Fort Wayne","country_code":"US","country_name":"United States","continent":"NA","latitude":40.978896,"longitude":-85.194465,"type":"medium_airport"},"GCM":{"airport":"GCM","name":"Owen Roberts International Airport","city":"George Town","country_code":"KY","country_name":"Cayman Islands","continent":"NA","latitude":19.292801,"longitude":-81.357697,"type":"large_airport"},"GEG":{"airport":"GEG","name":"Spokane International Airport","city":"Spokane","country_code":"US","country_name":"United States","continent":"NA","latitude":47.6199,"longitude":-117.533997,"type":"large_airport"},"GFK":{"airport":"GFK","name":"Grand Forks International Airport","city":"Grand Forks","country_code":"US","country_name":"United States","continent":"NA","latitude":47.949299,"longitude":-97.176102,"type":"medium_airport"},"GIG":{"airport":"GIG","name":"Rio Galeão – Tom Jobim International Airport","city":"Rio De Janeiro","country_code":"BR","country_name":"Brazil","continent":"SA","latitude":-22.809999,"longitude":-43.250557,"type":"large_airport"},"GNV":{"airport":"GNV","name":"Gainesville Regional Airport","city":"Gainesville","country_code":"US","country_name":"United States","continent":"NA","latitude":29.6900997162,"longitude":-82.2717971802,"type":"medium_airport"},"GPT":{"airport":"GPT","name":"Gulfport Biloxi International Airport","city":"Gulfport","country_code":"US","country_name":"United States","continent":"NA","latitude":30.405582,"longitude":-89.069836,"type":"medium_airport"},"GRB":{"airport":"GRB","name":"Austin Straubel International Airport","city":"Green Bay","country_code":"US","country_name":"United States","continent":"NA","latitude":44.483459,"longitude":-88.130805,"type":"medium_airport"},"GRR":{"airport":"GRR","name":"Gerald R. Ford International Airport","city":"Grand Rapids","country_code":"US","country_name":"United States","continent":"NA","latitude":42.880798,"longitude":-85.522797,"type":"large_airport"},"GRU":{"airport":"GRU","name":"São Paulo/Guarulhos–Governor André Franco Montoro International Airport","city":"São Paulo","country_code":"BR","country_name":"Brazil","continent":"SA","latitude":-23.431274,"longitude":-46.469954,"type":"large_airport"},"GSO":{"airport":"GSO","name":"Piedmont Triad International Airport","city":"Greensboro","country_code":"US","country_name":"United States","continent":"NA","latitude":36.09937,"longitude":-79.937262,"type":"large_airport"},"GSP":{"airport":"GSP","name":"Greenville-Spartanburg International Airport","city":"Greenville/Greer/Spartanburg","country_code":"US","country_name":"United States","continent":"NA","latitude":34.895699,"longitude":-82.218903,"type":"medium_airport"},"GTR":{"airport":"GTR","name":"Golden Triangle Regional Airport","city":"Columbus/W Point/Starkville","country_code":"US","country_name":"United States","continent":"NA","latitude":33.450298,"longitude":-88.5914,"type":"medium_airport"},"GUC":{"airport":"GUC","name":"Gunnison Crested Butte Regional Airport","city":"Gunnison","country_code":"US","country_name":"United States","continent":"NA","latitude":38.534672,"longitude":-106.934566,"type":"medium_airport"},"HDN":{"airport":"HDN","name":"Yampa Valley Airport","city":"Hayden","country_code":"US","country_name":"United States","continent":"NA","latitude":40.481201,"longitude":-107.218002,"type":"medium_airport"},"HHH":{"airport":"HHH","name":"Hilton Head Airport","city":"Hilton Head Island","country_code":"US","country_name":"United States","continent":"NA","latitude":32.2244,"longitude":-80.697502,"type":"medium_airport"},"HKG":{"airport":"HKG","name":"Hong Kong International Airport","city":"Hong Kong","country_code":"HK","country_name":"Hong Kong","continent":"AS","latitude":22.31184,"longitude":113.914862,"type":"large_airport"},"HLN":{"airport":"HLN","name":"Helena Regional Airport","city":"Helena","country_code":"US","country_name":"United States","continent":"NA","latitude":46.6068,"longitude":-111.983002,"type":"medium_airport"},"HND":{"airport":"HND","name":"Tokyo Haneda International Airport","city":"Tokyo","country_code":"JP","country_name":"Japan","continent":"AS","latitude":35.549678,"longitude":139.786958,"type":"large_airport"},"HNL":{"airport":"HNL","name":"Daniel K. Inouye International Airport","city":"Honolulu, Oahu","country_code":"US","country_name":"United States","continent":"OC","latitude":21.318387,"longitude":-157.92567,"type":"large_airport"},"HOB":{"airport":"HOB","name":"Lea County Regional Airport","city":"Hobbs","country_code":"US","country_name":"United States","continent":"NA","latitude":32.6875,"longitude":-103.217003,"type":"medium_airport"},"HOU":{"airport":"HOU","name":"William P. Hobby Airport","city":"Houston","country_code":"US","country_name":"United States","continent":"NA","latitude":29.645336,"longitude":-95.276812,"type":"large_airport"},"HPN":{"airport":"HPN","name":"Westchester County Airport","city":"White Plains","country_code":"US","country_name":"United States","continent":"NA","latitude":41.06700134277344,"longitude":-73.70760345458984,"type":"medium_airport"},"HSV":{"airport":"HSV","name":"Huntsville International Airport","city":"Huntsville","country_code":"US","country_name":"United States","continent":"NA","latitude":34.636244,"longitude":-86.774378,"type":"medium_airport"},"IAD":{"airport":"IAD","name":"Washington Dulles International Airport","city":"Dulles","country_code":"US","country_name":"United States","continent":"NA","latitude":38.9445,"longitude":-77.455803,"type":"large_airport"},"IAH":{"airport":"IAH","name":"George Bush Intercontinental Airport","city":"Houston","country_code":"US","country_name":"United States","continent":"NA","latitude":29.9844,"longitude":-95.3414,"type":"large_airport"},"ICN":{"airport":"ICN","name":"Incheon International Airport","city":"Seoul","country_code":"KR","country_name":"South Korea","continent":"AS","latitude":37.469101,"longitude":126.450996,"type":"large_airport"},"ICT":{"airport":"ICT","name":"Wichita Dwight D. Eisenhower National Airport","city":"Wichita","country_code":"US","country_name":"United States","continent":"NA","latitude":37.650314,"longitude":-97.428583,"type":"medium_airport"},"IDA":{"airport":"IDA","name":"Idaho Falls Regional Airport","city":"Idaho Falls","country_code":"US","country_name":"United States","continent":"NA","latitude":43.514599,"longitude":-112.070999,"type":"medium_airport"},"ILM":{"airport":"ILM","name":"Wilmington International Airport","city":"Wilmington","country_code":"US","country_name":"United States","continent":"NA","latitude":34.272345,"longitude":-77.905117,"type":"medium_airport"},"IMT":{"airport":"IMT","name":"Ford Airport","city":"Kingsford","country_code":"US","country_name":"United States","continent":"NA","latitude":45.81911,"longitude":-88.114557,"type":"medium_airport"},"IND":{"airport":"IND","name":"Indianapolis International Airport","city":"Indianapolis","country_code":"US","country_name":"United States","continent":"NA","latitude":39.7173,"longitude":-86.294403,"type":"large_airport"},"INL":{"airport":"INL","name":"Falls International Airport","city":"International Falls","country_code":"US","country_name":"United States","continent":"NA","latitude":48.566200256347656,"longitude":-93.4030990600586,"type":"medium_airport"},"ISP":{"airport":"ISP","name":"Long Island MacArthur Airport","city":"Islip","country_code":"US","country_name":"United States","continent":"NA","latitude":40.796324,"longitude":-73.101703,"type":"medium_airport"},"ITO":{"airport":"ITO","name":"Hilo International Airport","city":"Hilo","country_code":"US","country_name":"United States","continent":"OC","latitude":19.72135,"longitude":-155.045428,"type":"medium_airport"},"JAC":{"airport":"JAC","name":"Jackson Hole Airport","city":"Jackson","country_code":"US","country_name":"United States","continent":"NA","latitude":43.6073,"longitude":-110.737999,"type":"medium_airport"},"JAN":{"airport":"JAN","name":"Jackson-Medgar Wiley Evers International Airport","city":"Jackson","country_code":"US","country_name":"United States","continent":"NA","latitude":32.311199,"longitude":-90.075897,"type":"medium_airport"},"JAX":{"airport":"JAX","name":"Jacksonville International Airport","city":"Jacksonville","country_code":"US","country_name":"United States","continent":"NA","latitude":30.492469,"longitude":-81.687813,"type":"large_airport"},"JFK":{"airport":"JFK","name":"John F. Kennedy International Airport","city":"New York","country_code":"US","country_name":"United States","continent":"NA","latitude":40.639447,"longitude":-73.779317,"type":"large_airport"},"JMS":{"airport":"JMS","name":"Jamestown Regional Airport","city":"Jamestown","country_code":"US","country_name":"United States","continent":"NA","latitude":46.92969894,"longitude":-98.67819977,"type":"medium_airport"},"JNB":{"airport":"JNB","name":"O.R. Tambo International Airport","city":"Johannesburg","country_code":"ZA","country_name":"South Africa","continent":"AF","latitude":-26.140081,"longitude":28.246801,"type":"large_airport"},"JNU":{"airport":"JNU","name":"Juneau International Airport","city":"Juneau","country_code":"US","country_name":"United States","continent":"NA","latitude":58.354935,"longitude":-134.574416,"type":"medium_airport"},"KEF":{"airport":"KEF","name":"Keflavik International Airport","city":"Reykjavík","country_code":"IS","country_name":"Iceland","continent":"EU","latitude":63.985001,"longitude":-22.6056,"type":"large_airport"},"KIN":{"airport":"KIN","name":"Norman Manley International Airport","city":"Kingston","country_code":"JM","country_name":"Jamaica","continent":"NA","latitude":17.935699462890625,"longitude":-76.7874984741211,"type":"large_airport"},"KIX":{"airport":"KIX","name":"Kansai International Airport","city":"Osaka","country_code":"JP","country_name":"Japan","continent":"AS","latitude":34.427299,"longitude":135.244003,"type":"large_airport"},"KOA":{"airport":"KOA","name":"Ellison Onizuka Kona International Airport at Keāhole","city":"Kailua-Kona","country_code":"US","country_name":"United States","continent":"OC","latitude":19.738783,"longitude":-156.045603,"type":"large_airport"},"LAN":{"airport":"LAN","name":"Capital Region International Airport","city":"Lansing","country_code":"US","country_name":"United States","continent":"NA","latitude":42.777582,"longitude":-84.585721,"type":"medium_airport"},"LAS":{"airport":"LAS","name":"Harry Reid International Airport","city":"Las Vegas","country_code":"US","country_name":"United States","continent":"NA","latitude":36.083361,"longitude":-115.151817,"type":"large_airport"},"LAX":{"airport":"LAX","name":"Los Angeles International Airport","city":"Los Angeles","country_code":"US","country_name":"United States","continent":"NA","latitude":33.942501,"longitude":-118.407997,"type":"large_airport"},"LBB":{"airport":"LBB","name":"Lubbock Preston Smith International Airport","city":"Lubbock","country_code":"US","country_name":"United States","continent":"NA","latitude":33.663601,"longitude":-101.822998,"type":"medium_airport"},"LCH":{"airport":"LCH","name":"Lake Charles Regional Airport","city":"Lake Charles","country_code":"US","country_name":"United States","continent":"NA","latitude":30.126100540161133,"longitude":-93.22329711914062,"type":"medium_airport"},"LCY":{"airport":"LCY","name":"London City Airport","city":"London","country_code":"GB","country_name":"United Kingdom","continent":"EU","latitude":51.505299,"longitude":0.055278,"type":"medium_airport"},"LEX":{"airport":"LEX","name":"Blue Grass Airport","city":"Lexington","country_code":"US","country_name":"United States","continent":"NA","latitude":38.035066,"longitude":-84.606738,"type":"medium_airport"},"LFT":{"airport":"LFT","name":"Lafayette Regional Airport","city":"Lafayette","country_code":"US","country_name":"United States","continent":"NA","latitude":30.205299,"longitude":-91.987602,"type":"medium_airport"},"LGA":{"airport":"LGA","name":"LaGuardia Airport","city":"New York","country_code":"US","country_name":"United States","continent":"NA","latitude":40.777199,"longitude":-73.872597,"type":"large_airport"},"LGB":{"airport":"LGB","name":"Long Beach International Airport","city":"Long Beach","country_code":"US","country_name":"United States","continent":"NA","latitude":33.816523,"longitude":-118.149891,"type":"large_airport"},"LGW":{"airport":"LGW","name":"London Gatwick Airport","city":"London","country_code":"GB","country_name":"United Kingdom","continent":"EU","latitude":51.148744,"longitude":-0.185739,"type":"large_airport"},"LHR":{"airport":"LHR","name":"London Heathrow Airport","city":"London","country_code":"GB","country_name":"United Kingdom","continent":"EU","latitude":51.470748,"longitude":-0.459909,"type":"large_airport"},"LIH":{"airport":"LIH","name":"Lihue Airport","city":"Lihue, Kauai","country_code":"US","country_name":"United States","continent":"OC","latitude":21.974393,"longitude":-159.337146,"type":"large_airport"},"LIM":{"airport":"LIM","name":"Jorge Chávez International Airport","city":"Lima","country_code":"PE","country_name":"Peru","continent":"SA","latitude":-12.0219,"longitude":-77.114305,"type":"large_airport"},"LIR":{"airport":"LIR","name":"Daniel Oduber Quirós International Airport","city":"Liberia","country_code":"CR","country_name":"Costa Rica","continent":"NA","latitude":10.5933,"longitude":-85.544403,"type":"large_airport"},"LIS":{"airport":"LIS","name":"Lisbon Humberto Delgado Airport","city":"Lisbon","country_code":"PT","country_name":"Portugal","continent":"EU","latitude":38.7813,"longitude":-9.13592,"type":"large_airport"},"LIT":{"airport":"LIT","name":"Bill & Hillary Clinton National Airport/Adams Field","city":"Little Rock","country_code":"US","country_name":"United States","continent":"NA","latitude":34.729222,"longitude":-92.223591,"type":"medium_airport"},"LNK":{"airport":"LNK","name":"Lincoln Airport","city":"Lincoln","country_code":"US","country_name":"United States","continent":"NA","latitude":40.844882,"longitude":-96.76178,"type":"medium_airport"},"LTN":{"airport":"LTN","name":"London Luton Airport","city":"Luton, Luton","country_code":"GB","country_name":"United Kingdom","continent":"EU","latitude":51.874699,"longitude":-0.368333,"type":"large_airport"},"MAD":{"airport":"MAD","name":"Adolfo Suárez Madrid–Barajas Airport","city":"Madrid","country_code":"ES","country_name":"Spain","continent":"EU","latitude":40.493407,"longitude":-3.572249,"type":"large_airport"},"MBJ":{"airport":"MBJ","name":"Sangster International Airport","city":"Montego Bay","country_code":"JM","country_name":"Jamaica","continent":"NA","latitude":18.50342,"longitude":-77.91323,"type":"large_airport"},"MBS":{"airport":"MBS","name":"MBS International Airport","city":"Freeland","country_code":"US","country_name":"United States","continent":"NA","latitude":43.533181,"longitude":-84.083104,"type":"medium_airport"},"MCI":{"airport":"MCI","name":"Kansas City International Airport","city":"Kansas City","country_code":"US","country_name":"United States","continent":"NA","latitude":39.301699,"longitude":-94.713893,"type":"large_airport"},"MCO":{"airport":"MCO","name":"Orlando International Airport","city":"Orlando","country_code":"US","country_name":"United States","continent":"NA","latitude":28.429399490356445,"longitude":-81.30899810791016,"type":"large_airport"},"MDT":{"airport":"MDT","name":"Harrisburg International Airport","city":"Harrisburg","country_code":"US","country_name":"United States","continent":"NA","latitude":40.192838,"longitude":-76.762333,"type":"medium_airport"},"MDW":{"airport":"MDW","name":"Chicago Midway International Airport","city":"Chicago","country_code":"US","country_name":"United States","continent":"NA","latitude":41.785999,"longitude":-87.752403,"type":"large_airport"},"MEM":{"airport":"MEM","name":"Memphis International Airport","city":"Memphis","country_code":"US","country_name":"United States","continent":"NA","latitude":35.043845,"longitude":-89.97634,"type":"large_airport"},"MEX":{"airport":"MEX","name":"Mexico City Benito Juárez International Airport","city":"Mexico City","country_code":"MX","country_name":"Mexico","continent":"NA","latitude":19.435822,"longitude":-99.07033,"type":"large_airport"},"MGM":{"airport":"MGM","name":"Montgomery Regional (Dannelly Field) Airport","city":"Montgomery","country_code":"US","country_name":"United States","continent":"NA","latitude":32.300598,"longitude":-86.393997,"type":"medium_airport"},"MHK":{"airport":"MHK","name":"Manhattan Regional Airport","city":"Manhattan","country_code":"US","country_name":"United States","continent":"NA","latitude":39.14099884033203,"longitude":-96.6707992553711,"type":"medium_airport"},"MIA":{"airport":"MIA","name":"Miami International Airport","city":"Miami","country_code":"US","country_name":"United States","continent":"NA","latitude":25.796011,"longitude":-80.289751,"type":"large_airport"},"MKE":{"airport":"MKE","name":"General Mitchell International Airport","city":"Milwaukee","country_code":"US","country_name":"United States","continent":"NA","latitude":42.947201,"longitude":-87.896599,"type":"large_airport"},"MNL":{"airport":"MNL","name":"Ninoy Aquino International Airport","city":"Manila (Pasay)","country_code":"PH","country_name":"Philippines","continent":"AS","latitude":14.5086,"longitude":121.019997,"type":"large_airport"},"MOB":{"airport":"MOB","name":"Mobile Regional Airport","city":"Mobile","country_code":"US","country_name":"United States","continent":"NA","latitude":30.6912,"longitude":-88.242798,"type":"medium_airport"},"MQT":{"airport":"MQT","name":"Marquette/Sawyer International Airport","city":"Gwinn","country_code":"US","country_name":"United States","continent":"NA","latitude":46.351498,"longitude":-87.395884,"type":"medium_airport"},"MSP":{"airport":"MSP","name":"Minneapolis–Saint Paul International Airport / Wold–Chamberlain Field","city":"Minneapolis","country_code":"US","country_name":"United States","continent":"NA","latitude":44.880081,"longitude":-93.221741,"type":"large_airport"},"MSY":{"airport":"MSY","name":"Louis Armstrong New Orleans International Airport","city":"New Orleans","country_code":"US","country_name":"United States","continent":"NA","latitude":29.993401,"longitude":-90.264673,"type":"large_airport"},"MUC":{"airport":"MUC","name":"Munich Airport","city":"Munich","country_code":"DE","country_name":"Germany","continent":"EU","latitude":48.353802,"longitude":11.7861,"type":"large_airport"},"MXP":{"airport":"MXP","name":"Milan Malpensa International Airport","city":"Ferno (VA)","country_code":"IT","country_name":"Italy","continent":"EU","latitude":45.6306,"longitude":8.72811,"type":"large_airport"},"MYR":{"airport":"MYR","name":"Myrtle Beach International Airport","city":"Myrtle Beach","country_code":"US","country_name":"United States","continent":"NA","latitude":33.679699,"longitude":-78.928299,"type":"large_airport"},"NAS":{"airport":"NAS","name":"Lynden Pindling International Airport","city":"Nassau","country_code":"BS","country_name":"Bahamas","continent":"NA","latitude":25.039,"longitude":-77.466202,"type":"large_airport"},"NGO":{"airport":"NGO","name":"Chubu Centrair International Airport","city":"Tokoname","country_code":"JP","country_name":"Japan","continent":"AS","latitude":34.858398,"longitude":136.804993,"type":"large_airport"},"NRT":{"airport":"NRT","name":"Narita International Airport","city":"Narita","country_code":"JP","country_name":"Japan","continent":"AS","latitude":35.76858,"longitude":140.388714,"type":"large_airport"},"OAJ":{"airport":"OAJ","name":"Albert J Ellis Airport","city":"Richlands","country_code":"US","country_name":"United States","continent":"NA","latitude":34.829201,"longitude":-77.612099,"type":"medium_airport"},"OAK":{"airport":"OAK","name":"Oakland San Francisco Bay Airport","city":"Oakland","country_code":"US","country_name":"United States","continent":"NA","latitude":37.720085,"longitude":-122.221184,"type":"large_airport"},"OGG":{"airport":"OGG","name":"Kahului International Airport","city":"Kahului","country_code":"US","country_name":"United States","continent":"OC","latitude":20.896263,"longitude":-156.431837,"type":"large_airport"},"OKC":{"airport":"OKC","name":"OKC Will Rogers World Airport","city":"Oklahoma City","country_code":"US","country_name":"United States","continent":"NA","latitude":35.393388,"longitude":-97.598248,"type":"large_airport"},"OMA":{"airport":"OMA","name":"Eppley Airfield","city":"Omaha","country_code":"US","country_name":"United States","continent":"NA","latitude":41.3032,"longitude":-95.894096,"type":"large_airport"},"ONT":{"airport":"ONT","name":"Ontario International Airport","city":"Ontario","country_code":"US","country_name":"United States","continent":"NA","latitude":34.056,"longitude":-117.600998,"type":"large_airport"},"ORD":{"airport":"ORD","name":"Chicago O'Hare International Airport","city":"Chicago","country_code":"US","country_name":"United States","continent":"NA","latitude":41.9786,"longitude":-87.9048,"type":"large_airport"},"ORF":{"airport":"ORF","name":"Norfolk International Airport","city":"Norfolk","country_code":"US","country_name":"United States","continent":"NA","latitude":36.895341,"longitude":-76.201,"type":"large_airport"},"ORY":{"airport":"ORY","name":"Paris-Orly Airport","city":"Paris (Orly, Val-de-Marne)","country_code":"FR","country_name":"France","continent":"EU","latitude":48.729499,"longitude":2.358963,"type":"large_airport"},"OTZ":{"airport":"OTZ","name":"Ralph Wien Memorial Airport","city":"Kotzebue","country_code":"US","country_name":"United States","continent":"NA","latitude":66.88469696,"longitude":-162.598999,"type":"medium_airport"},"PAY":{"airport":"PAY","name":"Pamol Airport","city":"Pamol","country_code":"MY","country_name":"Malaysia","continent":"AS","latitude":5.996571,"longitude":117.404795,"type":"small_airport"},"PBI":{"airport":"PBI","name":"President Donald J. Trump International Airport","city":"West Palm Beach","country_code":"US","country_name":"United States","continent":"NA","latitude":26.683201,"longitude":-80.095596,"type":"large_airport"},"PDX":{"airport":"PDX","name":"Portland International Airport","city":"Portland","country_code":"US","country_name":"United States","continent":"NA","latitude":45.588699,"longitude":-122.598,"type":"large_airport"},"PEK":{"airport":"PEK","name":"Beijing Capital International Airport","city":"Beijing","country_code":"CN","country_name":"China","continent":"AS","latitude":40.077349,"longitude":116.596702,"type":"large_airport"},"PHL":{"airport":"PHL","name":"Philadelphia International Airport","city":"Philadelphia","country_code":"US","country_name":"United States","continent":"NA","latitude":39.871899,"longitude":-75.241096,"type":"large_airport"},"PHX":{"airport":"PHX","name":"Phoenix Sky Harbor International Airport","city":"Phoenix","country_code":"US","country_name":"United States","continent":"NA","latitude":33.435302,"longitude":-112.005905,"type":"large_airport"},"PIT":{"airport":"PIT","name":"Pittsburgh International Airport","city":"Pittsburgh","country_code":"US","country_name":"United States","continent":"NA","latitude":40.491501,"longitude":-80.232903,"type":"large_airport"},"PLS":{"airport":"PLS","name":"Providenciales International Airport","city":"Providenciales","country_code":"TC","country_name":"Turks and Caicos Islands","continent":"NA","latitude":21.773697,"longitude":-72.268321,"type":"large_airport"},"PNS":{"airport":"PNS","name":"Pensacola International Airport","city":"Pensacola","country_code":"US","country_name":"United States","continent":"NA","latitude":30.472718,"longitude":-87.186639,"type":"large_airport"},"POS":{"airport":"POS","name":"Piarco International Airport","city":"Port of Spain","country_code":"TT","country_name":"Trinidad and Tobago","continent":"NA","latitude":10.59535,"longitude":-61.337568,"type":"large_airport"},"PUJ":{"airport":"PUJ","name":"Punta Cana International Airport","city":"Punta Cana","country_code":"DO","country_name":"Dominican Republic","continent":"NA","latitude":18.567093,"longitude":-68.364558,"type":"large_airport"},"PVD":{"airport":"PVD","name":"Rhode Island T. F. Green International Airport","city":"Providence/Warwick","country_code":"US","country_name":"United States","continent":"NA","latitude":41.725038,"longitude":-71.425668,"type":"large_airport"},"PVG":{"airport":"PVG","name":"Shanghai Pudong International Airport","city":"Shanghai (Pudong)","country_code":"CN","country_name":"China","continent":"AS","latitude":31.1434,"longitude":121.805,"type":"large_airport"},"PVR":{"airport":"PVR","name":"Puerto Vallarta International Airport","city":"Puerto Vallarta","country_code":"MX","country_name":"Mexico","continent":"NA","latitude":20.679913,"longitude":-105.254391,"type":"large_airport"},"PWA":{"airport":"PWA","name":"Wiley Post Airport","city":"Oklahoma City","country_code":"US","country_name":"United States","continent":"NA","latitude":35.53419876,"longitude":-97.64710236,"type":"small_airport"},"PWM":{"airport":"PWM","name":"Portland International Jetport","city":"Portland","country_code":"US","country_name":"United States","continent":"NA","latitude":43.646198,"longitude":-70.309303,"type":"large_airport"},"RAP":{"airport":"RAP","name":"Rapid City Regional Airport","city":"Rapid City","country_code":"US","country_name":"United States","continent":"NA","latitude":44.0452995300293,"longitude":-103.05699920654297,"type":"medium_airport"},"RDM":{"airport":"RDM","name":"Roberts Field","city":"Redmond","country_code":"US","country_name":"United States","continent":"NA","latitude":44.254101,"longitude":-121.150002,"type":"medium_airport"},"RDU":{"airport":"RDU","name":"Raleigh-Durham International Airport","city":"Raleigh/Durham","country_code":"US","country_name":"United States","continent":"NA","latitude":35.878659,"longitude":-78.7873,"type":"large_airport"},"RIC":{"airport":"RIC","name":"Richmond International Airport","city":"Richmond","country_code":"US","country_name":"United States","continent":"NA","latitude":37.505199,"longitude":-77.319702,"type":"large_airport"},"RNO":{"airport":"RNO","name":"Reno Tahoe International Airport","city":"Reno","country_code":"US","country_name":"United States","continent":"NA","latitude":39.4991,"longitude":-119.767998,"type":"large_airport"},"ROA":{"airport":"ROA","name":"Roanoke–Blacksburg Regional Airport","city":"Roanoke","country_code":"US","country_name":"United States","continent":"NA","latitude":37.3255,"longitude":-79.975403,"type":"medium_airport"},"ROC":{"airport":"ROC","name":"Frederick Douglass Greater Rochester International Airport","city":"Rochester","country_code":"US","country_name":"United States","continent":"NA","latitude":43.1189,"longitude":-77.672401,"type":"large_airport"},"RST":{"airport":"RST","name":"Rochester International Airport","city":"Rochester","country_code":"US","country_name":"United States","continent":"NA","latitude":43.908298,"longitude":-92.5,"type":"medium_airport"},"RSW":{"airport":"RSW","name":"Southwest Florida International Airport","city":"Fort Myers","country_code":"US","country_name":"United States","continent":"NA","latitude":26.534685,"longitude":-81.752816,"type":"large_airport"},"SAF":{"airport":"SAF","name":"Santa Fe Municipal Airport","city":"Santa Fe","country_code":"US","country_name":"United States","continent":"NA","latitude":35.6171,"longitude":-106.088997,"type":"medium_airport"},"SAN":{"airport":"SAN","name":"San Diego International Airport","city":"San Diego","country_code":"US","country_name":"United States","continent":"NA","latitude":32.733601,"longitude":-117.190002,"type":"large_airport"},"SAT":{"airport":"SAT","name":"San Antonio International Airport","city":"San Antonio","country_code":"US","country_name":"United States","continent":"NA","latitude":29.533701,"longitude":-98.469803,"type":"large_airport"},"SAV":{"airport":"SAV","name":"Savannah Hilton Head International Airport","city":"Savannah","country_code":"US","country_name":"United States","continent":"NA","latitude":32.126591,"longitude":-81.19998,"type":"large_airport"},"SBA":{"airport":"SBA","name":"Santa Barbara Municipal Airport","city":"Santa Barbara","country_code":"US","country_name":"United States","continent":"NA","latitude":34.426201,"longitude":-119.839996,"type":"medium_airport"},"SBN":{"airport":"SBN","name":"South Bend International Airport","city":"South Bend","country_code":"US","country_name":"United States","continent":"NA","latitude":41.708304,"longitude":-86.316922,"type":"medium_airport"},"SCL":{"airport":"SCL","name":"Comodoro Arturo Merino Benítez International Airport","city":"Santiago","country_code":"CL","country_name":"Chile","continent":"SA","latitude":-33.393001556396484,"longitude":-70.78579711914062,"type":"large_airport"},"SDF":{"airport":"SDF","name":"Louisville Muhammad Ali International Airport","city":"Louisville","country_code":"US","country_name":"United States","continent":"NA","latitude":38.1706,"longitude":-85.735076,"type":"large_airport"},"SDU":{"airport":"SDU","name":"Santos Dumont Airport","city":"Rio de Janeiro","country_code":"BR","country_name":"Brazil","continent":"SA","latitude":-22.910397,"longitude":-43.16282,"type":"large_airport"},"SEA":{"airport":"SEA","name":"Seattle–Tacoma International Airport","city":"Seattle","country_code":"US","country_name":"United States","continent":"NA","latitude":47.447943,"longitude":-122.310276,"type":"large_airport"},"SFO":{"airport":"SFO","name":"San Francisco International Airport","city":"San Francisco","country_code":"US","country_name":"United States","continent":"NA","latitude":37.619806,"longitude":-122.374821,"type":"large_airport"},"SGF":{"airport":"SGF","name":"Springfield Branson National Airport","city":"Springfield","country_code":"US","country_name":"United States","continent":"NA","latitude":37.245047,"longitude":-93.388596,"type":"medium_airport"},"SHV":{"airport":"SHV","name":"Shreveport Regional Airport","city":"Shreveport","country_code":"US","country_name":"United States","continent":"NA","latitude":32.444747,"longitude":-93.826741,"type":"medium_airport"},"SIN":{"airport":"SIN","name":"Singapore Changi Airport","city":"Singapore","country_code":"SG","country_name":"Singapore","continent":"AS","latitude":1.35019,"longitude":103.994003,"type":"large_airport"},"SIT":{"airport":"SIT","name":"Sitka Rocky Gutierrez Airport","city":"Sitka","country_code":"US","country_name":"United States","continent":"NA","latitude":57.04710006713867,"longitude":-135.36199951171875,"type":"medium_airport"},"SJC":{"airport":"SJC","name":"Norman Y. Mineta San Jose International Airport","city":"San Jose","country_code":"US","country_name":"United States","continent":"NA","latitude":37.362452,"longitude":-121.929188,"type":"large_airport"},"SJD":{"airport":"SJD","name":"Los Cabos International Airport","city":"San José del Cabo","country_code":"MX","country_name":"Mexico","continent":"NA","latitude":23.151919,"longitude":-109.720731,"type":"large_airport"},"SJO":{"airport":"SJO","name":"Juan Santamaría International Airport","city":"San José (Alajuela)","country_code":"CR","country_name":"Costa Rica","continent":"NA","latitude":9.99386,"longitude":-84.208801,"type":"large_airport"},"SJU":{"airport":"SJU","name":"Luis Munoz Marin International Airport","city":"San Juan","country_code":"PR","country_name":"Puerto Rico","continent":"NA","latitude":18.4394,"longitude":-66.001801,"type":"large_airport"},"SLC":{"airport":"SLC","name":"Salt Lake City International Airport","city":"Salt Lake City","country_code":"US","country_name":"United States","continent":"NA","latitude":40.78886,"longitude":-111.979866,"type":"large_airport"},"SMF":{"airport":"SMF","name":"Sacramento International Airport","city":"Sacramento","country_code":"US","country_name":"United States","continent":"NA","latitude":38.6954,"longitude":-121.591003,"type":"large_airport"},"SNA":{"airport":"SNA","name":"John Wayne Orange County International Airport","city":"Santa Ana","country_code":"US","country_name":"United States","continent":"NA","latitude":33.675063,"longitude":-117.869281,"type":"large_airport"},"SPI":{"airport":"SPI","name":"Abraham Lincoln Capital Airport","city":"Springfield","country_code":"US","country_name":"United States","continent":"NA","latitude":39.844101,"longitude":-89.677902,"type":"medium_airport"},"SRQ":{"airport":"SRQ","name":"Sarasota Bradenton International Airport","city":"Sarasota/Bradenton","country_code":"US","country_name":"United States","continent":"NA","latitude":27.394631,"longitude":-82.554359,"type":"large_airport"},"STL":{"airport":"STL","name":"St. Louis Lambert International Airport","city":"St Louis","country_code":"US","country_name":"United States","continent":"NA","latitude":38.748697,"longitude":-90.370003,"type":"large_airport"},"STN":{"airport":"STN","name":"London Stansted Airport","city":"London, Essex","country_code":"GB","country_name":"United Kingdom","continent":"EU","latitude":51.884998,"longitude":0.235,"type":"large_airport"},"STS":{"airport":"STS","name":"Charles M. Schulz Sonoma County Airport","city":"Santa Rosa","country_code":"US","country_name":"United States","continent":"NA","latitude":38.50899887,"longitude":-122.8130035,"type":"medium_airport"},"STT":{"airport":"STT","name":"Cyril E. King Airport","city":"Charlotte Amalie","country_code":"VI","country_name":"U.S. Virgin Islands","continent":"NA","latitude":18.337091,"longitude":-64.977251,"type":"large_airport"},"SUN":{"airport":"SUN","name":"Friedman Memorial Airport","city":"Hailey","country_code":"US","country_name":"United States","continent":"NA","latitude":43.50439835,"longitude":-114.2959976,"type":"medium_airport"},"SXM":{"airport":"SXM","name":"Princess Juliana International Airport","city":"Sint Maarten","country_code":"SX","country_name":"Sint Maarten","continent":"NA","latitude":18.041,"longitude":-63.108898,"type":"large_airport"},"SYR":{"airport":"SYR","name":"Syracuse Hancock International Airport","city":"Syracuse","country_code":"US","country_name":"United States","continent":"NA","latitude":43.11119842529297,"longitude":-76.1063003540039,"type":"large_airport"},"TLH":{"airport":"TLH","name":"Tallahassee International Airport","city":"Tallahassee","country_code":"US","country_name":"United States","continent":"NA","latitude":30.401209,"longitude":-84.35433,"type":"medium_airport"},"TPA":{"airport":"TPA","name":"Tampa International Airport","city":"Tampa","country_code":"US","country_name":"United States","continent":"NA","latitude":27.9755,"longitude":-82.533203,"type":"large_airport"},"TPE":{"airport":"TPE","name":"Taiwan Taoyuan International Airport","city":"Taoyuan","country_code":"TW","country_name":"Taiwan","continent":"AS","latitude":25.0777,"longitude":121.233002,"type":"large_airport"},"TRI":{"airport":"TRI","name":"Tri-Cities Regional TN/VA Airport","city":"Blountville","country_code":"US","country_name":"United States","continent":"NA","latitude":36.475201,"longitude":-82.407401,"type":"medium_airport"},"TUL":{"airport":"TUL","name":"Tulsa International Airport","city":"Tulsa","country_code":"US","country_name":"United States","continent":"NA","latitude":36.197084,"longitude":-95.886225,"type":"large_airport"},"TUS":{"airport":"TUS","name":"Tucson International Airport","city":"Tucson","country_code":"US","country_name":"United States","continent":"NA","latitude":32.115004,"longitude":-110.938053,"type":"large_airport"},"TYS":{"airport":"TYS","name":"McGhee Tyson Airport","city":"Knoxville/Maryville","country_code":"US","country_name":"United States","continent":"NA","latitude":35.811001,"longitude":-83.994003,"type":"large_airport"},"VLD":{"airport":"VLD","name":"Valdosta Regional Airport","city":"Valdosta","country_code":"US","country_name":"United States","continent":"NA","latitude":30.782499313354492,"longitude":-83.27670288085938,"type":"medium_airport"},"VPS":{"airport":"VPS","name":"Destin-Fort Walton Beach Airport","city":"Valparaiso","country_code":"US","country_name":"United States","continent":"NA","latitude":30.481315,"longitude":-86.515839,"type":"medium_airport"},"XNA":{"airport":"XNA","name":"Northwest Arkansas National Airport","city":"Fayetteville/Springdale/Rogers","country_code":"US","country_name":"United States","continent":"NA","latitude":36.281898,"longitude":-94.306801,"type":"medium_airport"},"YUL":{"airport":"YUL","name":"Montreal / Pierre Elliott Trudeau International Airport","city":"Montréal","country_code":"CA","country_name":"Canada","continent":"NA","latitude":45.467837,"longitude":-73.742294,"type":"large_airport"},"YVR":{"airport":"YVR","name":"Vancouver International Airport","city":"Vancouver","country_code":"CA","country_name":"Canada","continent":"NA","latitude":49.193901,"longitude":-123.183998,"type":"large_airport"},"YYC":{"airport":"YYC","name":"Calgary International Airport","city":"Calgary","country_code":"CA","country_name":"Canada","continent":"NA","latitude":51.118822,"longitude":-114.009933,"type":"large_airport"},"YYZ":{"airport":"YYZ","name":"Toronto Pearson International Airport","city":"Toronto","country_code":"CA","country_name":"Canada","continent":"NA","latitude":43.675935,"longitude":-79.629421,"type":"large_airport"},"ZRH":{"airport":"ZRH","name":"Zürich Airport","city":"Zurich","country_code":"CH","country_name":"Switzerland","continent":"EU","latitude":47.458056,"longitude":8.548056,"type":"large_airport"}}}
